{"type":"FeatureCollection","features":[{"type":"Feature","properties":{"place":"http://www.wikidata.org/entity/Q2061938","placeLabel":"South Delhi district","image":"","marker_size":"small","marker_color":"#FFC0CB","type":"Point","marker_symbol":"library"},"geometry":{"type":"Point","coordinates":[77.1919,28.5549]}},{"type":"Feature","properties":{"place":"http://www.wikidata.org/entity/Q25553535","placeLabel":"South East Delhi district","image":"","marker_size":"small","marker_color":"#FFC0CB","type":"Point","marker_symbol":"library"},"geometry":{"type":"Point","coordinates":[77.13967,28.60955]}},{"type":"Feature","properties":{"place":"http://www.wikidata.org/entity/Q766125","placeLabel":"North West Delhi district","image":"","marker_size":"small","marker_color":"#FFC0CB","type":"Point","marker_symbol":"library"},"geometry":{"type":"Point","coordinates":[77.1271,28.6964]}},{"type":"Feature","properties":{"place":"http://www.wikidata.org/entity/Q429329","placeLabel":"North East Delhi district","image":"","marker_size":"small","marker_color":"#FFC0CB","type":"Point","marker_symbol":"library"},"geometry":{"type":"Point","coordinates":[77.3073,28.6936]}},{"type":"Feature","properties":{"place":"http://www.wikidata.org/entity/Q107941","placeLabel":"Central Delhi district","image":"","marker_size":"small","marker_color":"#FFC0CB","type":"Point","marker_symbol":"library"},"geometry":{"type":"Point","coordinates":[77.245,28.645]}},{"type":"Feature","properties":{"place":"http://www.wikidata.org/entity/Q549807","placeLabel":"West Delhi district","image":"","marker_size":"small","marker_color":"#FFC0CB","type":"Point","marker_symbol":"library"},"geometry":{"type":"Point","coordinates":[77.100833333,28.660833333]}},{"type":"Feature","properties":{"place":"http://www.wikidata.org/entity/Q2379189","placeLabel":"South West Delhi district","image":"","marker_size":"small","marker_color":"#FFC0CB","type":"Point","marker_symbol":"library"},"geometry":{"type":"Point","coordinates":[77.13967,28.60955]}},{"type":"Feature","properties":{"place":"http://www.wikidata.org/entity/Q693367","placeLabel":"North Delhi district","image":"","marker_size":"small","marker_color":"#FFC0CB","type":"Point","marker_symbol":"library"},"geometry":{"type":"Point","coordinates":[77.224977,28.676314]}},{"type":"Feature","properties":{"place":"http://www.wikidata.org/entity/Q107960","placeLabel":"East Delhi district","image":"","marker_size":"small","marker_color":"#FFC0CB","type":"Point","marker_symbol":"library"},"geometry":{"type":"Point","coordinates":[77.29,28.64]}},{"type":"Feature","properties":{"place":"http://www.wikidata.org/entity/Q83486","placeLabel":"Shahdara district","image":"","marker_size":"small","marker_color":"#FFC0CB","type":"Point","marker_symbol":"library"},"geometry":{"type":"Point","coordinates":[77.271,28.6816]}}]}